{
    "phpxaz.com": {
        "external": false,
        "name": "PHP×Phoenix",
        "region": "Phoenix",
        "description": "AKA azPHP - A Phoenix-area PHP meetup for PHP and other devs to hang out.",
        "timezone": "America/Phoenix",
        "bsky_url": null,
        "active": "true",
        "status": "active",
        "frequency": "monthly",
        "meetup_url": "https://www.meetup.com/azPHPUG/",
        "latitude": 33.4484,
        "longitude": -112.0740
    },
    "phpxphilly.com": {
        "external": false,
        "name": "PHP×Philly",
        "region": null,
        "description": "A Philly-area PHP meetup for web artisans who want to learn and connect.",
        "timezone": "America/New_York",
        "bsky_url": "https://bsky.app/profile/phpxphilly.com",
        "latitude": 39.9527237,
        "longitude": -75.1635262
    },
    "phpxstl.com": {
        "external": false,
        "name": "PHP×STL",
        "region": "St. Louis",
        "description": "A St. Louis-area PHP meetup for web artisans who want to learn and connect.",
        "timezone": "America/Chicago",
        "bsky_url": null,
        "latitude": 38.6280278,
        "longitude": -90.1910154
    },
    "phpxchi.com": {
        "external": false,
        "name": "PHP×CHI",
        "region": "Chicago",
        "description": "A meetup in Chicago for PHP and Laravel devs. Coming soon.",
        "timezone": "America/Chicago",
        "bsky_url": "https://bsky.app/profile/phpxchi.com",
        "latitude": 41.8755616,
        "longitude": -87.6244212
    },
    "phpxatl.com": {
        "external": false,
        "name": "PHP×ATL",
        "region": "Atlanta",
        "description": "A local Atlanta Metro area PHP meetup for web artisans who want to learn and connect.",
        "timezone": "America/New_York",
        "bsky_url": "https://bsky.app/profile/phpxatl.com",
        "latitude": 33.7489924,
        "longitude": -84.3902644
    },
    "phpxmsp.com": {
        "external": false,
        "name": "PHP×MSP",
        "region": "Minneapolis",
        "description": "A local Minneapolis / St. Paul PHP meetup for web artisans who want to learn and connect.",
        "timezone": "America/Chicago",
        "status": "active",
        "bsky_url": "https://bsky.app/profile/phpxmsp.com",
        "latitude": 44.9772995,
        "longitude": -93.2654692
    },
    "phpxhou.com": {
        "external": false,
        "name": "PHP×HOU",
        "region": "Houston",
        "description": "A local Houston PHP meetup for web artisans who want to learn and connect.",
        "timezone": "America/Chicago",
        "bsky_url": "https://bsky.app/profile/phpxhou.com",
        "latitude": 29.7589382,
        "longitude": -95.3676974
    },
    "phpxcmh.com": {
        "external": false,
        "name": "PHP×CMH",
        "region": "Columbus",
        "description": "A local Columbus PHP meetup for web artisans who want to learn and connect.",
        "timezone": "America/New_York",
        "bsky_url": "https://bsky.app/profile/phpxcmh.com",
        "latitude": 39.9622601,
        "longitude": -83.0007065
    },
    "phpxadl.com": {
        "external": false,
        "name": "PHP×ADL",
        "region": "Adelaide",
        "description": "A Adelaide, Australia PHP meetup for web artisans who want to learn and connect.",
        "timezone": "Australia/Adelaide",
        "status": "active",
        "frequency": "monthly",
        "bsky_url": "https://bsky.app/profile/phpxadl.bsky.social",
        "latitude": -34.9281805,
        "longitude": 138.5999312
    },
    "phpxcebu.com": {
        "external": false,
        "name": "PHP×CEBU",
        "region": "Cebu",
        "description": "A Cebu-Philippines PHP meetup for web artisans who want to learn and connect.",
        "timezone": "Asia/Manila",
        "bsky_url": "https://bsky.app/profile/phpxcebu.com",
        "status": "planned",
        "frequency": "bi-monthly",
        "latitude": 10.2935639,
        "longitude": 123.9019209
    },
    "phpxbru.com": {
        "external": false,
        "name": "PHP×BRU",
        "region": "Brussels",
        "continent": "Europe",
        "description": "PHP & Laravel meetups for belgian developers",
        "timezone": "Europe/Brussels",
        "bsky_url": "https://bsky.app/profile/phpxbru.com",
        "status": "planned",
        "frequency": "monthly",
        "latitude": 50.8465573,
        "longitude": 4.351697
    },
    "phpxpnq.com": {
        "external": false,
        "name": "PHP×PNQ",
        "region": "Pune",
        "description": "A Pune-India PHP meetup for web artisans who want to learn and connect.",
        "timezone": "Asia/Kolkata",
        "status": "planned",
        "frequency": "quarterly",
        "bsky_url": "https://bsky.app/profile/phpxpnq.com",
        "latitude": 18.5204301,
        "longitude": 73.8564637
    },
    "phpxvie.com": {
        "external": false,
        "name": "PHP×VIE",
        "region": "Vienna",
        "description": "A Vienna PHP meetup for web artisans who want to learn and connect.",
        "timezone": "Europe/Vienna",
        "bsky_url": "https://bsky.app/profile/phpxvie.bsky.social",
        "meetup_url": "https://www.meetup.com/viennaphp/,https://www.meetup.com/Laravel-Frameworkers-Vienna/",
        "status": "active",
        "frequency": "bi-monthly",
        "latitude": 48.18835594056084,
        "longitude": 16.374042777964085
    },
    "phpxfra.com": {
        "external": false,
        "name": "PHP×FRA",
        "region": "Frankfurt",
        "continent": "Europe",
        "description": "A Frankfurt PHP/Laravel meetup for web artisans who want to learn and connect.",
        "timezone": "Europe/Berlin",
        "bsky_url": "https://bsky.app/profile/byte5.bsky.social",
        "meetup_url": "https://www.meetup.com/de-DE/laravel-meetup-germany/",
        "status": "active",
        "frequency": "quarterly",
        "latitude": 50.10133008361063,
        "longitude": 8.663325905799867
    },
    "upstatephp.com": {
        "external": true,
        "name": "PHP×GVL",
        "region": "Greenville",
        "latitude": 34.851354,
        "longitude": -82.3984882
    },
    "phpxnyc.com": {
        "external": true,
        "name": "PHP×NYC",
        "region": "NYC",
        "latitude": 40.7127281,
        "longitude": -74.0060152
    },
    "kyphpug.org": {
        "external": true,
        "name": "PHP×LEX",
        "region": "Kentucky",
        "latitude": 38.0464066,
        "longitude": -84.4970393
    },
    "mkepug.org": {
        "external": true,
        "name": "PHP×MKE",
        "region": "Milwaukee",
        "latitude": 43.0386475,
        "longitude": -87.9090751
    },
    "phpstoke.co.uk": {
        "external": true,
        "name": "PHP×Stoke",
        "region": "Stoke-on-Trent",
        "latitude": 53.0162014,
        "longitude": -2.1812607
    },
    "chattanoogaphp.org": {
        "external": true,
        "name": "PHP×Chattanooga",
        "region": "Chattanooga",
        "description": "A Chattanooga Tennessee PHP meetup for web artisans who want to learn and connect, held over zoom - over lunch, doing PHP/Laravel/Drupal/Anything PHP",
        "timezone": "America/New York",
        "bsky_url": "https://bsky.app/profile/phpxchattanooga.bsky.social",
        "latitude": 35.0457219,
        "longitude": -85.3094883
    },
    "laravel.swiss": {
        "external": true,
        "name": "PHP×Switzerland",
        "region": "Switzerland",
        "description": "Bringing the Swiss Laravel community together on a regular base by organizing a monthly Meetup covering all topics around the Laravel and PHP ecosystem.",
        "frequency": "monthly",
        "timezone": "Europe/Zurich",
        "bsky_url": null,
        "latitude": 46.94809,
        "longitude": 7.44744,
        "status": "active"
    },
    "phpxmtl.ca": {
        "external": true,
        "name": "PHP×Montreal",
        "region": "Montreal",
        "description": "Your friendly Montreal Laravel User Group, organizing monthly Meetups about the Laravel ecosystem.",
        "frequency": "monthly",
        "timezone": "America/Toronto",
        "bsky_url": null,
        "latitude": 45.494642,
        "longitude": -73.55776,
        "status": "active"
    },
    "phpxden.com": {
        "external": false,
        "name": "PHP×DEN",
        "region": "Denver",
        "continent": "North America",
        "description": "A Denver-area PHP meetup for web artisans who want to learn and connect.",
        "timezone": "America/Denver",
        "status": "prospective",
        "latitude": 39.7392,
        "longitude": -104.9903
    },
    "phpxsea.com": {
        "external": false,
        "name": "PHP×SEA",
        "region": "Seattle",
        "continent": "North America",
        "description": "A Seattle-area PHP meetup for web artisans who want to learn and connect.",
        "timezone": "America/Los_Angeles",
        "status": "prospective",
        "bsky_url": "https://bsky.app/profile/phpxsea.com",
        "latitude": 47.60899936190318,
        "longitude": -122.34052530121367
    },
    "phpxvadodara.com": {
        "external": false,
        "name": "PHP×Vadodara",
        "region": "Vadodara",
        "continent": "Asia",
        "description": "A vibrant PHP meetup in the cultural city of Vadodara, India, connecting developers, enthusiasts, and artisans to share knowledge, learn, and grow together.",
        "timezone": "Asia/Kolkata",
        "status": "planned",
        "frequency": "monthly",
        "latitude": 22.3174902,
        "longitude": 73.1667258
    }
}
